{"company":[{"address":"广东河源市兴源路31号金叶大厦","city":"441600","cityName":"河源市","factNum":72,"fax":"0762-3370701","id":327,"inTransitCar":25,"inTransitNum":36,"inventory":2188,"latitude":"23.753564","longitude":"114.708531","name":"广东省河源市烟草专卖局(公司)","planNum":84,"postcode":"517000.0","province":"440000","purchase":69,"sale":370,"tell":"0762-3296123"},{"address":"梅州市江北侨新路259号","city":"441400","cityName":"梅州市","factNum":77,"fax":"0753-2234312","id":328,"inTransitCar":13,"inTransitNum":48,"inventory":2188,"latitude":"24.322954","longitude":"116.133576","name":"广东省梅州市烟草专卖局(公司)","planNum":93,"postcode":"514011.0","province":"440000","purchase":78,"sale":405,"tell":"0753-2234561，2236081"},{"address":"汕尾市汕尾大道中段公园路口","city":"441500","cityName":"汕尾市","factNum":83,"fax":"0660-3373185","id":330,"inTransitCar":25,"inTransitNum":60,"inventory":1680,"latitude":"22.787716","longitude":"115.377876","name":"广东省汕尾市烟草专卖局(公司)","planNum":95,"postcode":"516600.0","province":"440000","purchase":74,"sale":430,"tell":"0660-3373185","url":"http://202.104.252.59/swyancaoju/"},{"address":"广东省中山市西河东路6号","city":"442000","cityName":"中山市","factNum":81,"fax":"0760-88612298","id":332,"inTransitCar":25,"inTransitNum":60,"inventory":2520,"latitude":"22.522386","longitude":"113.362271","name":"广东省中山市烟草专卖局(公司)","planNum":80,"postcode":"528400.0","province":"440000","purchase":80,"sale":450,"tell":"0760-88631913，88620388"},{"address":"广东省阳江市东门路45号","city":"441700","cityName":"阳江市","factNum":83,"fax":"0662-3229871","id":335,"inTransitCar":22,"inTransitNum":36,"inventory":2657,"latitude":"21.853964","longitude":"111.973547","name":"广东省阳江市烟草专卖局(公司)","planNum":84,"postcode":"529500.0","province":"440000","purchase":83,"sale":430,"tell":"0662-3219022，3229500"},{"address":"茂名市人民南路176号金叶大厦","city":"440900","cityName":"茂名市","factNum":73,"fax":"0668-2812773","id":337,"inTransitCar":25,"inTransitNum":48,"inventory":2520,"latitude":"21.658618","longitude":"110.924413","name":"广东省茂名市烟草专卖局(公司)","planNum":88,"postcode":"525000.0","province":"440000","purchase":69,"sale":405,"tell":"0668-2812517，2801286","url":"http://yancao.maoming.gov.cn/"},{"address":"广东省肇庆市工农北路57号","city":"441200","cityName":"肇庆市","factNum":83,"fax":"0758-2237392","id":338,"inTransitCar":23,"inTransitNum":54,"inventory":2188,"latitude":"23.062611","longitude":"112.485446","name":"广东省肇庆市烟草专卖局(公司)","planNum":80,"postcode":"526040.0","province":"440000","purchase":85,"sale":370,"tell":"0758-2227718，2202643"},{"address":"广东省云浮市星岩二路76号","city":"445300","cityName":"云浮市","factNum":88,"fax":"0766-8828155","id":342,"inTransitCar":22,"inTransitNum":24,"inventory":1880,"latitude":"22.942595","longitude":"112.049689","name":"广东省云浮市烟草专卖局(公司)","planNum":79,"postcode":"527300.0","province":"440000","purchase":69,"sale":460,"tell":"0766-8819503，8822409","url":"http://yczm.yunfu.gov.cn/"},{"address":"长沙市劳动东路359号","city":"430100","cityName":"长沙市","factNum":71,"fax":"0731-85221226","id":309,"inTransitCar":25,"inTransitNum":56,"inventory":2657,"latitude":"28.164212","longitude":"113.045945","name":"湖南省长沙市烟草专卖局(公司)","planNum":84,"postcode":"410007.0","province":"430000","purchase":78,"sale":450,"tell":"0731-85234303","url":"http://222.240.173.99:81"},{"address":"湖南省株洲市人民中路318号","city":"430200","cityName":"株洲市","factNum":88,"fax":"0731-28224088","id":310,"inTransitCar":15,"inTransitNum":40,"inventory":2520,"latitude":"27.851238","longitude":"113.158029","name":"湖南省株洲市烟草专卖局(公司)","planNum":80,"postcode":"412000.0","province":"430000","purchase":80,"sale":370,"tell":"0731-28223986","url":"http://222.240.173.99:86/"},{"address":"湖南省湘潭市建设中路189号","city":"430300","cityName":"湘潭市","factNum":86,"fax":"0731-58569707, 58569627","id":311,"inTransitCar":19,"inTransitNum":60,"inventory":2188,"latitude":"27.844383","longitude":"112.923066","name":"湖南省湘潭市烟草专卖局(公司)","planNum":84,"postcode":"411000.0","province":"430000","purchase":83,"sale":460,"tell":"0731-58569600, 58569681","url":"http://222.240.173.99:85/"},{"address":"湖南省岳阳市巴陵东路109号","city":"430600","cityName":"岳阳市","factNum":86,"fax":"0730-8713328","id":314,"inTransitCar":22,"inTransitNum":54,"inventory":2657,"latitude":"29.377052","longitude":"113.153721","name":"湖南省岳阳市烟草专卖局(公司)","planNum":84,"postcode":"414000.0","province":"430000","purchase":83,"sale":410,"tell":"0730-8713331, 8713309","url":"http://222.240.173.99:83/"},{"address":"湖南省常德市武陵大道888号","city":"430700","cityName":"常德市","factNum":81,"fax":"0736-7899158","id":315,"inTransitCar":23,"inTransitNum":40,"inventory":1800,"latitude":"29.067345","longitude":"111.701126","name":"湖南省常德市烟草专卖局(公司)","planNum":79,"postcode":"415000.0","province":"430000","purchase":83,"sale":460,"tell":"0736-7890738","url":"http://222.240.173.99:91/"},{"address":"湖南省益阳市金山南路804号","city":"430900","cityName":"益阳市","factNum":88,"fax":"0737-6184996","id":317,"inTransitCar":25,"inTransitNum":36,"inventory":2657,"latitude":"28.571651","longitude":"112.350168","name":"湖南省益阳市烟草专卖局(公司)","planNum":95,"postcode":"413000.0","province":"430000","purchase":83,"sale":410,"tell":"0737-6184999","url":"http://222.240.173.99:92/"},{"address":"湖南省怀化市迎丰中路446号","city":"431200","cityName":"怀化市","factNum":83,"fax":"0745-2715427","id":320,"inTransitCar":22,"inTransitNum":24,"inventory":2657,"latitude":"27.55836","longitude":"110.002321","name":"湖南省怀化市烟草专卖局(公司)","planNum":93,"postcode":"418000.0","province":"430000","purchase":70,"sale":410,"tell":"0745-2713648","url":"http://222.240.173.99:94/"},{"address":"湖南省娄底市氐星路12号","city":"431300","cityName":"娄底市","factNum":83,"fax":"0738-8227073","id":321,"inTransitCar":19,"inTransitNum":24,"inventory":1680,"latitude":"27.722497","longitude":"112.013591","name":"湖南省娄底市烟草专卖局(公司)","planNum":79,"postcode":"417000.0","province":"430000","purchase":78,"sale":370,"tell":"0738-8312687, 8227096","url":"http://222.240.173.99:97/"},{"address":"湖南省吉首市人民南路（雅溪）","city":"433100","cityName":"吉首市","factNum":81,"fax":"0743-8568804","id":322,"inTransitCar":22,"inTransitNum":56,"inventory":1680,"latitude":"28.262229","longitude":"109.704786","name":"湖南省湘西土家族苗族自治州烟草专卖局(公司)","planNum":84,"postcode":"416000.0","province":"430000","purchase":70,"sale":450,"tell":"0743-8568526，8568823","url":"http://222.240.173.99:88/"}]}