[{"address":"广东省广州市荔湾区中山七路333号","factNum":83,"id":20,"inTransitCar":25,"inTransitNum":40,"inventory":2520,"latitude":"23.131382","longitude":"113.25112","name":"广州卷烟二厂","planNum":93,"postcode":"510000","produce":74,"sale":370,"smokeCompanyId":15,"url":"http://gdgy.tobacco.com.cn/"},{"address":"环市北路","factNum":77,"id":21,"inTransitCar":25,"inTransitNum":48,"inventory":1680,"latitude":"24.332726","longitude":"116.125521","name":"梅州卷烟厂","planNum":84,"postcode":"514000","produce":70,"sale":430,"smokeCompanyId":15,"url":"http://gdgy.tobacco.com.cn/"},{"address":"红玫路16号","factNum":77,"id":22,"inTransitCar":15,"inTransitNum":36,"inventory":2657,"latitude":"24.797228","longitude":"113.587963","name":"韶关卷烟厂","planNum":79,"postcode":"512000","produce":80,"sale":450,"smokeCompanyId":15,"tell":"0870-2220066","url":"http://gdgy.tobacco.com.cn/"},{"address":"康乐路7号","factNum":88,"id":23,"inTransitCar":19,"inTransitNum":24,"inventory":2090,"latitude":"21.264369","longitude":"110.380323","name":"湛江卷烟厂","planNum":84,"postcode":"524000","produce":80,"sale":450,"smokeCompanyId":15,"tell":"0759-3581102","url":"http://gdgy.tobacco.com.cn/"},{"address":"中意一路1177","factNum":73,"id":24,"inTransitCar":7,"inTransitNum":24,"inventory":2090,"latitude":"28.163369","longitude":"113.006233","name":"长沙卷烟厂","planNum":84,"postcode":"410000 ","produce":74,"sale":460,"smokeCompanyId":14,"url":"http://www.hngytobacco.com/"},{"address":"洞庭大道","factNum":73,"id":25,"inTransitCar":13,"inTransitNum":56,"inventory":2657,"latitude":"29.046071","longitude":"111.677799","name":"常德卷烟厂","planNum":93,"postcode":"415000 ","produce":69,"sale":370,"smokeCompanyId":14,"tell":"0736-7299972","url":"http://www.hngytobacco.com/"},{"address":"五里堆路16号","factNum":86,"id":26,"inTransitCar":25,"inTransitNum":40,"inventory":2188,"latitude":"25.795633","longitude":"113.023093","name":"郴州卷烟厂","planNum":93,"postcode":"423000","produce":85,"sale":370,"smokeCompanyId":14,"url":"http://www.hngytobacco.com/"},{"address":"湖南省永州市0陵区工农路177号","factNum":72,"id":27,"inTransitCar":23,"inTransitNum":54,"inventory":2657,"latitude":"26.234756","longitude":"111.615412","name":"零陵卷烟厂","planNum":80,"postcode":"425000","produce":83,"sale":430,"smokeCompanyId":14,"url":"http://www.hngytobacco.com/"},{"address":"四平市铁西区","factNum":71,"id":28,"inTransitCar":22,"inTransitNum":24,"inventory":1880,"latitude":"43.231706","longitude":"124.352914","name":"四平卷烟厂","planNum":93,"postcode":"136001","produce":80,"sale":430,"smokeCompanyId":14,"url":"http://www.hngytobacco.com/"},{"address":"利通南街431号","factNum":72,"id":29,"inTransitCar":23,"inTransitNum":60,"inventory":2090,"latitude":"37.981907","longitude":"106.204094","name":"吴忠卷烟厂","planNum":90,"postcode":"751100","produce":80,"sale":450,"smokeCompanyId":14,"url":"http://www.hngytobacco.com/"},{"address":"云南省玉溪市红塔大道118号","factNum":72,"id":1,"inTransitCar":23,"inTransitNum":60,"inventory":2520,"latitude":"24.337663","longitude":"102.565783","name":"红塔集团玉溪卷烟厂","planNum":79,"postcode":"653100","produce":83,"sale":410,"smokeCompanyId":16},{"address":"云南楚雄市鹿城东路169号","factNum":88,"id":17,"inTransitCar":19,"inTransitNum":48,"inventory":2188,"latitude":"25.043282","longitude":"101.565017","name":"楚雄卷烟厂","planNum":93,"postcode":"675000","produce":70,"sale":460,"smokeCompanyId":16,"tell":"0878-3012916"},{"address":"云南省大理市建设东路41号","factNum":72,"fax":"0872-2121020","id":18,"inTransitCar":7,"inTransitNum":56,"inventory":2520,"latitude":"25.593587","longitude":"100.243918","name":"大理卷烟厂","planNum":78,"postcode":"671000","produce":85,"sale":430,"smokeCompanyId":16,"tell":"0872-2125004"},{"address":"云南省昭通市南郊凤凰山","factNum":71,"fax":"0870-2220066","id":19,"inTransitCar":15,"inTransitNum":24,"inventory":1680,"latitude":"27.313849","longitude":"103.70597","name":"昭通卷烟厂","planNum":78,"postcode":"657000","produce":85,"sale":405,"smokeCompanyId":16,"tell":"0870-2130168","url":"http://www.ztyc.com/"}]